{
    "226010": {
        "city": "Lucknow",
        "state": "Uttar Pradesh",
        "locality": "Indira Nagar",
        "lat": 26.8467,
        "lng": 81.0279
    },
    "226001": {
        "city": "Lucknow",
        "state": "Uttar Pradesh",
        "locality": "Aliganj",
        "lat": 26.8270,
        "lng": 80.9706
    },
    "226002": {
        "city": "Lucknow",
        "state": "Uttar Pradesh",
        "locality": "Hussainabad",
        "lat": 26.8354,
        "lng": 80.9558
    },
    "226003": {
        "city": "Lucknow",
        "state": "Uttar Pradesh",
        "locality": "Charbagh",
        "lat": 26.8450,
        "lng": 80.9640
    },
    "226004": {
        "city": "Lucknow",
        "state": "Uttar Pradesh",
        "locality": "Hazratganj",
        "lat": 26.8500,
        "lng": 80.9833
    },
    "226005": {
        "city": "Lucknow",
        "state": "Uttar Pradesh",
        "locality": "Gomti Nagar",
        "lat": 26.8400,
        "lng": 81.0100
    },
    "110001": {
        "city": "New Delhi",
        "state": "Delhi",
        "locality": "Connaught Place",
        "lat": 28.6329,
        "lng": 77.1197
    },
    "110002": {
        "city": "New Delhi",
        "state": "Delhi",
        "locality": "Delhi Cantonment",
        "lat": 28.5678,
        "lng": 77.2011
    },
    "400001": {
        "city": "Mumbai",
        "state": "Maharashtra",
        "locality": "Fort",
        "lat": 18.9676,
        "lng": 72.8194
    },
    "400002": {
        "city": "Mumbai",
        "state": "Maharashtra",
        "locality": "Colaba",
        "lat": 18.9647,
        "lng": 72.8242
    },
    "560001": {
        "city": "Bangalore",
        "state": "Karnataka",
        "locality": "Lavelle Road",
        "lat": 13.1939,
        "lng": 77.5941
    },
    "560002": {
        "city": "Bangalore",
        "state": "Karnataka",
        "locality": "Bangalore Fort",
        "lat": 13.1906,
        "lng": 77.5991
    },
    "700001": {
        "city": "Kolkata",
        "state": "West Bengal",
        "locality": "Chowringhee",
        "lat": 22.5431,
        "lng": 88.3662
    },
    "700002": {
        "city": "Kolkata",
        "state": "West Bengal",
        "locality": "Park Circus",
        "lat": 22.5488,
        "lng": 88.3759
    },
    "600001": {
        "city": "Chennai",
        "state": "Tamil Nadu",
        "locality": "Fort St. George",
        "lat": 13.1939,
        "lng": 80.2815
    },
    "600002": {
        "city": "Chennai",
        "state": "Tamil Nadu",
        "locality": "Parry's",
        "lat": 13.1584,
        "lng": 80.2757
    }
}